stop_id,stop_name,stop_lat,stop_lon
1001,1701 NW 110 Ave - City of Sweetwater Maintenance and transit Dept,25.789842,-80.374116
1002,1701 NW 112th Avenue - Sweetwater Code Enforcement and Building and Zoning,25.789856,-80.376591
1003,11401 NW 12th St - DOLPHIN MALL,25.790167,-80.382720
1004,Entry #8 Trio,25.788982,-80.381359
1005,Entry #7 Bloomindales' - The Outlet Store,25.788770,-80.379875
1006,Burlington Coat Factory,25.788495,-80.378306
1007,Entry #5 Dolphin Mall,25.788061,-80.377542
1008,Marshall / Home Goods,25.787526,-80.377005
1009,Entry #4 - Sacks Fifth Avenue Outlet,25.786340,-80.377756
1010,ROSS,25.786288,-80.379077
1011,Main Entrance Texas Brazil and Cheesecake Factory,25.786295,-80.381403
1012,Entry #2 - Old Navy,25.787467,-80.383355
1013,Bass Pro Shop,25.788658,-80.384232
1014,DOLPHIN MALL Miami-Dade Main Bus Stop,25.790182,-80.382716
1015,1801 NW 117th Avenue - IKEA,25.792441,-80.384875
1016,11698 NW 25th St - US Postal Service,25.796089,-80.384969
1017,11411 NW 25th St - Our Lady of Mercy Catholic Cemetary,25.796756,-80.380409
1018,10730 NW 25th St La Covacha,25.796825,-80.369556
1019,2390 NW 107th Avenue - Midas,25.795821,-80.369141
1020,1890 NW 107th Avenue - BP gas station/ MD bus stop,25.791140,-80.369053
1021,1500 NW 107th Avenue - County Federal Credit Union,25.788252,-80.368964
1022,1414 NW 107th Avenue - MD bus stop,25.786728,-80.368925
1023,1390 NW 107th Avenue - MD bus stop,25.785788,-80.368890
1024,500 NW 107th Avenue - MD bus stop,25.775014,-80.369670
1025,318 NW 107th Avenue - MD bus stop,25.773186,-80.369493
1026,200 NW 107th Avenue - MD bus stop,25.770899,-80.369308
1027,10701 NW W. Flagler - Mobil / Food Star,25.768930,-80.369127
1028,10910 W. Flagler - My Pueblo Restaurant,
1029,10983 SW 4th Street - MD bus stop,
1030,110th Avenue SW 5th St - MD bus stop,
1031,500 SW 109th Avenue - City of Sweetwater,
1032,City Hall, POLICE Department and MD Clerk of Courts,
1033,512 SW 109th Avenue - City of Sweetwater Passport Office,
1034,7th SW 110th Avenue - Stop sign,
1035,7th Tr SW 110th Avenue - Stop sign,
1036,7th Tr SW 113th and 114th Avenue,
1037,250 SW 114th Avenue Jorge Mas Canosa Youth Center / Ronselli Park,
1038,11495 W. Flagler - Social Security / Robles / Villa Hermosa,
1039,11699 W. Flagler - Salon Del Reino De Los Testigos De Jehova,
1040,117th Avenue SW 1st St - Corner,
1041,11590 SW 2nd St - MD bus stop,
1042,11490 SW 2nd St - MD bus stop,
1043,455 NW 114th Avenue - (New Building),
1044,4th Tr NW 110th Avenue,
1045,6th St NW 114th Avenue,
1046,7th NW 113th Avenue,
1047,7th NW 112th Avenue,
1048,606 NW 112th Avenue - MD bus Stop,
1049,11235 NW 5th St - Vann Academy / MD bus stop,
1050,112th Avenue NW 2nd Tr - MD bus stop,
1051,112th Avenue NW 1st St - MD bus stop,
1052,11200 W. Flagler - Tower Plaza / MD bus stop,
1053,11200 SW 2nd St - MD bus stop,
1054,7th Tr SW 113th and 114th Avenue,
1055,550 SW 115th Avenue - Sweetwater Creek,
1056,115th SW 2nd Street - Stop sign,
1057,11400 SW W. Flagler - Flagler Shopping Center / MD bus stop,
1058,11388 W. Flagler - MD bus stop,
1059,113th Avenue W. Flagler - MD bus stop,
1060,11180 W. Flagler - MD bus stop,
1061,10900 W. Flagler - Finish Line Gas Station,
1062,10780 SW Flagler Madrono Restaurant,
1063,10720 W. Flagler - Sedanos,
1064,50 SW 108th Avenue - MD bus stop,
1065,10690 W. Flagler - Chase Bank,
1066,10500 SW W. Flagler - MacDonald,
1067,103ct SW W. Flagler - MD bus stop,
1068,10198 W. Flagler - Sunoco Gas Station / MD Bus stop,
1069,10044 W. Flagler - Navarro,
1070,99ct W. Flagler - MD bus stop,
1071,9695 W. Flagler - Winn Dixie,
1072,9825 W. Flagler - Ruben Dario Park,
1073,99ct W. Flagler - MD bus stop,
1074,102nd Avenue SW 1st St,
1075,102nd Avenue SW 4th St - Stop sign,
1076,10600 SW 4th St - Mildred & Claude Pepper Senior Center,
1077,300 SW 107th Ave - Continental National Bank of Miami,
1078,10750 SW 4th St - Sweetwater Towers,
1079,10899 SW 4th St - MD bus stop,
1080,740 SW 107th Avenue,
1081,1200 SW 108th Avenue - FIU,
1082,1525 SW 107th Avenue - Publix Supermarket / MD bus stop,
1083,1225 SW 107th Avenue - Palmer House / MD bus stop,
1084,595 SW 107th Avenue - MD bus stop,
1085,10555 W. Flagler (West Side) - FIU Engineering Center,
1086,561 NW 107th Ave -West Lake Village / MD bus stop,
1087,690 NW 107th Ave - Tropical Super Market,
1088,1455 NW 107 Ave- Macys & Old Navy - INTERNATIONAL MALL,
1089,10750 NW 14th Street - MD bus stop,